City_ID,City,Lat,Lng,Max Temp,Humidity,Cloudiness,Wind Speed,Country,Date
0,batalha,-9.6778,-37.1247,294.97,95,29,2.5,BR,1695163638
1,wailua homesteads,22.0669,-159.378,302.39,68,20,7.2,US,1695163638
2,port-aux-francais,-49.35,70.2167,274.5,67,96,16.44,TF,1695163639
3,saipan,15.1355,145.701,302.54,79,20,5.14,MP,1695163639
4,kuanda,56.3161,116.0806,277.43,60,64,0.59,RU,1695163639
5,muang xay,20.7,101.9833,293.27,100,41,0.45,LA,1695163639
6,grytviken,-54.2811,-36.5092,265.28,82,18,4.69,GS,1695163640
7,irbit,57.6705,63.071,281.25,80,79,2.94,RU,1695163640
8,banikoara,11.2985,2.4386,297.23,84,49,0.72,BJ,1695163640
9,petropavlovsk-kamchatsky,53.0452,158.6483,282.48,100,75,5.0,RU,1695163640
10,ghadamis,30.1337,9.5007,301.38,24,89,5.36,LY,1695163640
11,ust-nera,64.5667,143.2,272.9,77,98,3.85,RU,1695163641
12,morant bay,17.8815,-76.4093,304.94,79,100,3.36,JM,1695163641
13,vilyuysk,63.7553,121.6247,274.01,66,99,3.49,RU,1695163641
14,edinburgh of the seven seas,-37.0676,-12.3116,285.98,88,97,8.99,SH,1695163641
15,papatowai,-46.5619,169.4708,293.79,37,78,7.09,NZ,1695163642
16,udachny,66.4167,112.4,275.07,93,100,5.21,RU,1695163642
17,blackmans bay,-43.0167,147.3167,282.44,61,37,9.12,AU,1695163642
18,leua,48.2156,18.6071,291.2,82,34,0.78,SK,1695163643
19,itacoatiara,-3.1431,-58.4442,305.45,32,92,1.18,BR,1695163643
20,ilulissat,69.2167,-51.1,272.16,69,48,0.0,GL,1695163643
21,bethel,41.3712,-73.414,293.08,78,2,3.27,US,1695163643
22,whitehorse,60.7161,-135.0538,283.04,70,75,2.57,CA,1695163644
23,ewo,-0.8725,14.8206,296.75,83,19,1.55,CG,1695163644
24,maragogi,-9.0122,-35.2225,297.22,85,12,3.92,BR,1695163644
25,hawaiian paradise park,19.5933,-154.9731,300.95,84,100,2.06,US,1695163644
26,kununurra,-15.7667,128.7333,296.14,78,75,1.54,AU,1695163645
27,tazovsky,67.4667,78.7,279.5,93,83,7.92,RU,1695163645
28,laguna,38.421,-121.4238,303.79,46,0,3.09,US,1695163589
29,georgetown,5.4112,100.3354,300.34,95,20,2.06,MY,1695163562
30,las tablas,7.7667,-80.2833,299.67,84,100,1.83,PA,1695163646
31,puerto natales,-51.7236,-72.4875,274.7,79,22,3.43,CL,1695163647
32,iqaluit,63.7506,-68.5145,274.0,80,75,1.03,CA,1695163647
33,yellowknife,62.456,-114.3525,284.49,95,100,5.66,CA,1695163621
34,albany,42.6001,-73.9662,290.69,73,18,0.45,US,1695163516
35,mili,6.0815,171.735,301.48,77,97,3.31,MH,1695163648
36,new norfolk,-42.7826,147.0587,283.1,80,73,6.3,AU,1695163648
37,kalmunai,7.4167,81.8167,298.19,89,100,3.46,LK,1695163648
38,christchurch,-43.5333,172.6333,295.05,53,100,4.63,NZ,1695163648
39,talnakh,69.4865,88.3972,276.6,96,100,9.64,RU,1695163649
40,bamboo flat,11.7,92.7167,299.85,82,81,3.54,IN,1695163649
41,adamstown,-25.066,-130.1015,292.99,82,99,3.57,PN,1695163649
42,sirte,31.2089,16.5887,298.49,70,10,2.33,LY,1695163649
43,thompson,55.7435,-97.8558,292.24,72,75,1.54,CA,1695163451
44,waitangi,-43.9535,-176.5597,287.49,79,2,4.46,NZ,1695163650
45,tezu,27.9167,96.1667,296.73,99,100,0.98,IN,1695163650
46,sassandra,4.95,-6.0833,297.32,93,89,1.99,CI,1695163650
47,obo,5.3998,26.4869,293.08,97,97,1.0,CF,1695163650
48,sinabang,2.4803,96.3801,297.68,94,100,0.2,ID,1695163651
49,vila velha,-20.3297,-40.2925,297.12,84,20,7.72,BR,1695163651
50,visakhapatnam,17.69,83.2093,300.36,78,100,2.12,IN,1695163651
51,kapa'a,22.0752,-159.319,303.14,68,20,7.2,US,1695163651
52,kirgiz-miyaki,53.6324,54.7979,279.94,71,7,2.24,RU,1695163651
53,kasane,-17.8167,25.15,295.25,31,12,2.5,BW,1695163652
54,tabou,4.423,-7.3528,298.27,88,98,2.88,CI,1695163652
55,nuuk,64.1835,-51.7216,276.49,75,75,3.6,GL,1695163652
56,qaqortoq,60.7167,-46.0333,277.12,69,70,3.88,GL,1695163652
57,marka,1.7159,44.7717,297.92,90,99,6.87,SO,1695163653
58,coyhaique,-45.5752,-72.0662,280.49,91,66,0.66,CL,1695163653
59,longyearbyen,78.2186,15.6401,270.06,80,0,1.03,SJ,1695163653
60,yuza,39.0,139.9167,299.18,82,93,4.5,JP,1695163653
61,dire,12.2833,-10.9667,297.0,95,99,1.08,ML,1695163654
62,karratha,-20.7377,116.8463,295.96,72,61,0.4,AU,1695163654
63,nikolayevsk-on-amure,53.1406,140.73,277.52,86,100,6.47,RU,1695163654
64,carlisle,40.2015,-77.1889,295.17,48,0,2.18,US,1695163654
65,darwin,-12.4611,130.8418,299.79,69,20,2.57,AU,1695163655
66,anadyr,64.75,177.4833,278.43,75,0,4.0,RU,1695163655
67,kimbe,-5.5502,150.1429,301.74,69,87,3.68,PG,1695163655
68,klyuchi,52.2667,79.1667,285.59,80,59,1.07,RU,1695163655
69,calp,38.6447,0.0445,296.89,77,94,4.0,ES,1695163656
70,gaigeturi,33.4644,126.3183,299.18,65,75,2.06,KR,1695163656
71,prince rupert,54.3161,-130.3201,285.98,98,100,6.17,CA,1695163402
72,carnarvon,-24.8667,113.6333,289.81,70,1,7.48,AU,1695163656
73,kismayo,-0.3582,42.5454,298.08,85,41,6.72,SO,1695163656
74,chunskiy,56.0815,99.6342,281.57,92,49,0.08,RU,1695163657
75,raduzhny,62.0961,77.475,283.18,96,94,2.41,RU,1695163657
76,keflavik,64.0049,-22.5624,282.39,71,100,13.38,IS,1695163657
77,tiksi,71.6872,128.8694,273.73,82,100,3.45,RU,1695163657
78,isafjordur,66.0755,-23.124,279.08,80,100,17.4,IS,1695163658
79,bilibino,68.0546,166.4372,275.13,60,72,1.38,RU,1695163658
80,tsiombe,-25.3,45.4833,295.33,63,0,3.18,MG,1695163658
81,dakhla,23.6848,-15.958,294.11,83,32,10.57,EH,1695163658
82,hinton,53.4001,-117.5857,285.75,40,100,1.44,CA,1695163659
83,kulhudhuffushi,6.6221,73.07,301.09,74,100,2.62,MV,1695163659
84,alice springs,-23.7,133.8833,295.9,18,21,2.06,AU,1695163659
85,san luis de la loma,17.2706,-100.8939,302.59,76,21,2.6,MX,1695163659
86,sarmiento,-45.5882,-69.07,279.56,43,61,1.86,AR,1695163659
87,jeddah,21.5169,39.2192,307.07,27,20,3.6,SA,1695163660
88,kokomo,40.4864,-86.1336,296.59,52,0,2.06,US,1695163660
89,puerto ayora,-0.7393,-90.3518,301.13,92,73,2.24,EC,1695163660
90,invercargill,-46.4,168.35,294.83,44,49,9.39,NZ,1695163660
91,chonchi,-42.6128,-73.8092,281.71,82,44,1.76,CL,1695163660
92,ketchikan,55.3422,-131.6461,286.41,88,100,1.54,US,1695163661
93,saudarkrokur,65.7461,-19.6394,279.68,80,100,6.56,IS,1695163661
94,olonkinbyen,70.9221,-8.7187,277.48,73,78,7.35,SJ,1695163661
95,bandipura,34.4167,74.65,289.44,82,0,1.87,IN,1695163661
96,nogliki,51.8333,143.1667,280.38,81,100,10.65,RU,1695163662
97,mount pearl,47.5166,-52.7813,287.77,97,100,5.14,CA,1695163662
98,solnechnyy,50.7214,136.6319,277.38,88,100,2.67,RU,1695163662
99,burang,30.25,81.1667,281.24,81,64,0.93,CN,1695163662
100,san patricio,28.017,-97.5169,307.34,41,0,6.03,US,1695163663
101,olinda,-8.0089,-34.8553,300.0,78,75,6.69,BR,1695163514
102,rojhan,28.6868,69.9534,302.49,67,13,5.51,PK,1695163663
103,utrik,11.2278,169.8474,301.85,75,99,6.92,MH,1695163663
104,kyren,51.6828,102.1408,280.68,74,65,0.73,RU,1695163664
105,puerto armuelles,8.2833,-82.8667,300.42,72,69,0.45,PA,1695163664
106,zakynthos,37.7914,20.8953,296.28,71,31,0.33,GR,1695163572
107,taguatinga,-12.3857,-46.5711,305.48,18,41,3.4,BR,1695163664
108,lihue,21.9789,-159.3672,302.73,68,20,7.2,US,1695163664
109,nadym,65.5333,72.5167,279.82,75,96,7.69,RU,1695163665
110,gore,-46.1028,168.9436,293.7,40,57,5.9,NZ,1695163665
111,hithadhoo,-0.6,73.0833,300.93,78,92,5.69,MV,1695163665
112,nemuro,43.3236,145.575,291.82,83,100,5.39,JP,1695163665
113,kuje,8.8796,7.2272,297.38,83,20,1.03,NG,1695163666
114,egilsstadir,65.2653,-14.3948,279.1,87,100,10.29,IS,1695163666
115,kingston,17.997,-76.7936,304.68,79,40,9.77,JM,1695163666
116,meridian,43.6121,-116.3915,296.77,29,0,5.14,US,1695163540
117,badger,64.8,-147.5333,282.08,73,75,0.89,US,1695163666
118,san antonio de pale,-1.4014,5.6325,297.74,83,70,4.38,GQ,1695163667
119,charters towers,-20.1,146.2667,296.52,62,74,4.22,AU,1695163667
120,enewetak,11.3474,162.3373,299.12,85,100,4.05,MH,1695163667
121,ushuaia,-54.8,-68.3,276.96,75,75,10.29,AR,1695163459
122,ballina,-28.8667,153.5667,295.81,57,2,3.3,AU,1695163668
123,palmer,42.1584,-72.3287,292.51,66,33,0.89,US,1695163668
124,punta arenas,-53.15,-70.9167,277.21,70,75,11.83,CL,1695163669
125,susuman,62.7833,148.1667,274.4,93,100,4.21,RU,1695163669
126,bredasdorp,-34.5322,20.0403,286.12,68,50,9.49,ZA,1695163669
127,sao felix do xingu,-6.6447,-51.995,301.03,49,66,1.62,BR,1695163669
128,ta`u,-14.2336,-169.5144,299.02,68,99,10.94,AS,1695163670
129,lebu,-37.6167,-73.65,282.97,74,100,8.65,CL,1695163670
130,rogers park,61.1981,-149.8492,286.39,64,0,2.06,US,1695163670
131,portland,45.5234,-122.6762,297.56,43,20,2.68,US,1695163081
132,fort st. john,56.2499,-120.8529,286.09,44,75,1.54,CA,1695163632
133,cockburn town,21.4612,-71.1419,302.3,74,4,7.19,TC,1695163671
134,arauca,7.0847,-70.7591,296.13,100,40,1.54,CO,1695163671
135,irymple,-34.25,142.1667,289.87,68,0,0.89,AU,1695163671
136,dudinka,69.4058,86.1778,276.83,84,100,11.99,RU,1695163672
137,tarko-sale,64.9225,77.785,280.93,90,55,6.71,RU,1695163672
138,mount gambier,-37.8333,140.7667,283.84,63,98,5.38,AU,1695163672
139,ribeira grande,38.5167,-28.7,296.36,93,53,7.55,PT,1695163672
140,aioun,16.6614,-9.6149,304.57,45,87,5.41,MR,1695163673
141,neiafu,-18.65,-173.9833,297.53,60,75,5.66,TO,1695163673
142,remire-montjoly,4.9167,-52.2667,300.17,83,20,0.0,GF,1695163673
143,shimoda,34.6667,138.95,300.99,83,58,6.25,JP,1695163673
144,vila franca do campo,37.7167,-25.4333,295.38,99,96,4.4,PT,1695163674
145,thinadhoo,0.5333,72.9333,300.99,77,98,5.36,MV,1695163674
146,talara,-4.5772,-81.2719,297.57,73,0,7.27,PE,1695163674
147,yarmouth,41.7057,-70.2286,294.41,72,0,7.6,US,1695163386
148,uturoa,-16.7333,-151.4333,297.54,73,95,8.97,PF,1695163674
149,homer,59.6425,-151.5483,285.24,63,0,3.09,US,1695163675
150,swift current,50.2834,-107.8014,290.6,29,0,3.6,CA,1695163675
151,bucerias,20.75,-105.3333,305.92,74,35,2.83,MX,1695163668
152,avarua,-21.2078,-159.775,297.18,53,100,2.57,CK,1695163675
153,neelankarai,12.9455,80.2575,301.5,89,40,3.09,IN,1695163675
154,pola de lena,43.1609,-5.8288,289.28,86,28,1.38,ES,1695163676
155,muzaffargarh,30.0754,71.1921,301.16,72,1,2.43,PK,1695163445
156,margaret river,-33.95,115.0667,286.74,60,100,2.13,AU,1695163676
157,hamilton,39.1834,-84.5333,298.44,44,0,3.09,US,1695163432
158,constantia,44.1833,28.65,289.65,67,73,3.63,RO,1695163676
159,taveta,-3.3963,37.6736,293.04,82,25,1.9,KE,1695163677
160,tura,25.5198,90.2201,296.13,95,100,1.87,IN,1695163677
161,weno,7.4515,151.8468,300.12,89,100,0.0,FM,1695163677
162,sitka,57.0531,-135.33,288.09,67,20,6.17,US,1695163677
163,lluta,-16.0147,-72.0142,285.19,46,6,1.59,PE,1695163678
164,porto novo,6.4965,2.6036,299.05,92,93,2.03,BJ,1695163678
165,atafu village,-8.5421,-172.5159,300.98,78,100,6.29,TK,1695163678
166,aghajari,30.7006,49.8315,304.22,11,1,2.14,IR,1695163678
167,port alfred,-33.5906,26.891,290.15,88,65,5.31,ZA,1695163679
168,haiku-pauwela,20.9219,-156.3051,303.16,51,20,12.35,US,1695163679
169,hurricane,37.1753,-113.2899,305.34,22,0,4.47,US,1695163679
170,bengkulu,-3.8004,102.2655,296.52,93,91,1.96,ID,1695163679
171,udomlya,57.8794,34.9925,286.84,69,20,4.56,RU,1695163680
172,crane,31.3974,-102.3501,308.92,18,1,4.56,US,1695163680
173,lorengau,-2.0226,147.2712,301.88,73,89,3.35,PG,1695163680
174,brisas de zicatela,15.8369,-97.0419,302.99,64,54,1.33,MX,1695163680
175,meadow lakes,61.6247,-149.6011,286.54,55,0,1.54,US,1695163681
176,sudak,44.85,34.9667,291.85,64,0,3.54,UA,1695163681
177,lompoc,34.6391,-120.4579,301.36,72,0,8.49,US,1695163681
178,nar'yan-mar,67.6713,53.087,280.2,84,100,10.87,RU,1695163681
179,argo,37.6333,22.7333,294.14,60,26,0.97,GR,1695163682
180,villa gesell,-37.2639,-56.973,283.74,80,100,5.16,AR,1695163682
181,awjilah,29.1081,21.2869,297.23,63,22,3.92,LY,1695163682
182,east london,-33.0153,27.9116,290.81,84,75,3.57,ZA,1695163683
183,arboga,59.3939,15.8388,284.38,96,100,2.04,SE,1695163683
184,asau,46.4333,26.4,287.66,91,100,2.57,RO,1695163683
185,iskateley,67.6803,53.1512,280.14,84,100,10.88,RU,1695163683
186,west island,-12.1568,96.8225,298.14,78,100,4.12,CC,1695163684
187,rice lake,45.5061,-91.7382,297.33,69,0,6.17,US,1695163684
188,monterey,36.2505,-121.2516,297.69,1,0,5.39,US,1695163684
189,newman,37.3138,-121.0208,303.74,28,0,1.04,US,1695163684
190,ingeniero guillermo n. juarez,-23.9,-61.85,298.9,40,20,2.34,AR,1695163685
191,praia da vitoria,38.7333,-27.0667,296.29,88,40,5.76,PT,1695163685
192,la cruz,23.9167,-106.9,304.36,68,10,4.39,MX,1695163685
193,jamestown,42.097,-79.2353,290.92,55,0,5.14,US,1695163577
194,jonquiere,48.4165,-71.2488,288.21,88,100,4.12,CA,1695163686
195,columbine,39.5878,-105.0694,298.47,35,75,3.09,US,1695163686
196,shitanjing,39.2342,106.3439,288.48,43,97,2.83,CN,1695163686
197,namtsy,62.7161,129.6658,272.55,74,6,1.74,RU,1695163686
198,port blair,11.6667,92.75,299.85,82,80,3.54,IN,1695163686
199,tsaratanana,-16.7833,47.65,293.72,74,62,2.88,MG,1695163687
200,marsassoum,12.8275,-15.9806,298.2,94,98,2.92,SN,1695163687
201,tayaman,13.2295,120.5726,300.62,77,57,1.22,PH,1695163687
202,kodiak,57.79,-152.4072,283.88,71,0,3.09,US,1695163688
203,rivne,50.6231,26.2274,288.78,92,100,2.67,UA,1695163688
204,happy valley-goose bay,53.3168,-60.3315,284.32,71,75,3.6,CA,1695163688
205,richards bay,-28.783,32.0377,294.44,82,87,6.76,ZA,1695163664
206,pemangkat,1.1667,108.9667,298.46,87,100,2.17,ID,1695163688
207,villa maria grande,-31.6656,-59.9018,288.02,89,100,5.34,AR,1695163689
208,cururupu,-1.8283,-44.8683,298.6,87,15,2.45,BR,1695163689
209,buzen,33.6115,131.13,298.07,88,89,0.66,JP,1695163689
210,sao vicente,-23.9631,-46.3919,302.25,26,63,0.89,BR,1695163690
211,tisaiyanvilai,8.3333,77.8833,298.97,81,99,3.94,IN,1695163690
212,daru,-9.0763,143.2092,299.17,83,60,5.19,PG,1695163690
213,port augusta,-32.5,137.7667,289.54,67,0,2.94,AU,1695163691
214,seguela,7.9611,-6.6731,295.1,96,76,1.74,CI,1695163692
215,mbaiki,3.8678,17.9892,294.75,95,98,0.3,CF,1695163692
216,college,64.8569,-147.8028,282.12,75,75,0.89,US,1695163692
217,copala,16.65,-98.9833,302.7,68,16,2.86,MX,1695163693
218,tingo maria,-9.2895,-76.0088,295.63,86,77,0.42,PE,1695163693
219,cimahi,-6.8722,107.5425,292.26,90,28,1.5,ID,1695163693
220,gadzhiyevo,69.2551,33.3362,277.63,66,100,6.25,RU,1695163693
221,xingcheng,40.6167,120.7167,290.1,58,2,4.21,CN,1695163694
222,yesan,36.6776,126.8427,292.86,94,100,2.82,KR,1695163694
223,st. john's,47.5649,-52.7093,288.23,97,100,5.14,CA,1695163503
224,purpe,64.4803,76.6897,279.79,87,55,7.39,RU,1695163694
225,grand falls-windsor,48.9332,-55.6649,286.21,95,100,0.89,CA,1695163695
226,toliara,-23.35,43.6667,295.5,78,0,0.41,MG,1695163695
227,hermanus,-34.4187,19.2345,287.48,79,86,8.75,ZA,1695163695
228,sandnessjoen,66.0217,12.6316,284.44,82,100,8.93,NO,1695163695
229,polyarnyy,69.1989,33.4478,277.84,66,100,6.05,RU,1695163696
230,bahia de kino,28.8333,-111.9333,310.88,55,1,4.15,MX,1695163696
231,pangody,65.85,74.4859,279.39,78,71,8.08,RU,1695163696
232,kaisiadorys,54.8667,24.45,290.35,95,100,1.74,LT,1695163696
233,taksimo,56.3444,114.8794,277.82,59,74,0.2,RU,1695163697
234,taoudenni,22.6783,-3.9836,309.75,9,55,2.15,ML,1695163697
235,natal,-5.795,-35.2094,298.51,94,75,3.09,BR,1695163651
236,miles city,46.4083,-105.8406,296.69,21,0,5.66,US,1695163697
237,tongchuanshi,35.0806,109.0897,288.15,90,53,1.91,CN,1695163697
238,raton,36.9034,-104.4391,297.34,19,0,5.66,US,1695163698
239,cape coast,5.1053,-1.2466,297.82,92,98,3.29,GH,1695163698
240,gornozavodsk,58.3758,58.3211,275.08,94,64,0.64,RU,1695163698
241,ulundi,-28.3352,31.4162,293.41,56,92,2.11,ZA,1695163698
242,namibe,-15.1961,12.1522,290.81,87,40,3.31,AO,1695163699
243,al majaridah,19.1236,41.9111,305.55,52,71,0.73,SA,1695163699
244,nadi,-17.8,177.4167,301.15,57,20,6.69,FJ,1695163699
245,tommot,58.9564,126.2925,272.41,64,33,1.33,RU,1695163699
246,mossel bay,-34.1831,22.146,286.11,71,82,5.55,ZA,1695163699
247,aasiaat,68.7098,-52.8699,268.57,82,70,2.42,GL,1695163700
248,rio grande,-32.035,-52.0986,291.21,96,100,8.2,BR,1695163700
249,stanley,54.868,-1.6985,289.97,85,40,8.23,GB,1695163700
250,ribeira brava,32.65,-17.0667,295.5,63,29,0.81,PT,1695163700
251,ebon,4.582,168.6964,301.78,71,45,1.85,MH,1695163701
252,labasa,-16.4167,179.3833,299.91,63,38,5.42,FJ,1695163701
253,port elizabeth,-33.918,25.5701,289.32,85,98,0.89,ZA,1695163596
254,guaraniacu,-25.1008,-52.8781,292.55,88,65,1.1,BR,1695163701
255,colby,39.3958,-101.0524,305.37,18,0,3.09,US,1695163702
256,port mathurin,-19.6833,63.4167,296.08,80,6,9.88,MU,1695163702
257,noumea,-22.2763,166.4572,298.14,99,91,4.6,NC,1695163518
258,ola,59.5833,151.2833,279.9,88,100,13.59,RU,1695163702
259,berdigestyakh,62.0989,126.6992,272.71,68,14,1.58,RU,1695163702
260,eyl,7.9803,49.8164,298.39,84,25,8.91,SO,1695163703
261,mejit,10.2753,170.8646,301.75,75,73,6.91,MH,1695163703
262,breves,-1.6822,-50.4803,303.01,45,52,2.66,BR,1695163703
263,bontang,0.1333,117.5,298.04,91,89,3.4,ID,1695163409
264,santa catalina,9.3337,122.8637,300.28,82,87,0.53,PH,1695163703
265,prado,-17.3411,-39.2208,296.64,84,8,4.24,BR,1695163478
266,nova sintra,14.8667,-24.7167,297.27,83,93,1.89,CV,1695163704
267,boa vista,2.8197,-60.6733,304.14,55,20,2.57,BR,1695163704
268,shenkursk,62.1091,42.896,283.82,79,100,5.53,RU,1695163704
269,sulak,43.2734,47.5146,292.71,75,0,8.32,RU,1695163705
270,acarau,-2.8856,-40.12,299.61,80,11,8.54,BR,1695163705
271,island harbour,50.724,-1.2758,292.0,89,100,5.36,GB,1695163705
272,vila do maio,15.1333,-23.2167,300.59,88,77,5.08,CV,1695163705
273,okondja,-0.6549,13.6753,296.14,91,73,0.27,GA,1695163705
274,uliastay,47.7417,96.8444,279.8,51,100,2.54,MN,1695163706
275,champerico,14.3,-91.9167,307.45,69,98,3.12,GT,1695163706
276,afaahiti,-17.75,-149.2833,300.08,75,91,7.16,PF,1695163706
277,holualoa,19.6228,-155.9522,300.68,78,40,4.63,US,1695163706
278,lepsy,46.235,78.9456,290.91,47,100,3.16,KZ,1695163707
279,vadso,70.0744,29.7487,276.64,80,75,4.63,NO,1695163707
280,arboletes,8.8505,-76.4269,300.61,83,88,3.44,CO,1695163707
281,kargasok,59.0556,80.8572,282.43,94,18,3.2,RU,1695163707
282,horta,38.5333,-28.6333,295.88,93,61,7.43,PT,1695163708
283,san felipe,10.3399,-68.7425,300.04,70,67,1.37,VE,1695163708
284,sycow,51.3081,17.7198,287.87,68,79,3.07,PL,1695163708
285,bubaque,11.2833,-15.8333,299.79,81,100,4.95,GW,1695163708
286,hirtshals,57.5881,9.9592,287.48,84,90,9.23,DK,1695163709
287,sharm el-sheikh,27.8518,34.305,304.23,42,0,3.09,EG,1695163709
288,minas de marcona,-15.2119,-75.1103,288.71,75,3,5.04,PE,1695163709
289,la passe,45.5549,-0.8967,289.81,84,41,3.04,FR,1695163710
290,zaozersk,69.4005,32.4476,276.65,69,100,5.15,RU,1695163710
291,bikenibeu village,1.3673,173.1241,303.13,79,40,2.06,KI,1695163710
292,sikonge,-5.6333,32.7667,297.06,46,99,1.2,TZ,1695163710
293,gandi,12.9636,5.7434,298.13,71,55,1.65,NG,1695163710
294,oranjemund,-28.55,16.4333,286.13,83,11,2.04,NA,1695163711
295,cannonvale,-20.2833,148.7,297.81,71,77,2.51,AU,1695163711
296,anna regina,7.2644,-58.5077,301.2,76,82,4.28,GY,1695163711
297,callaway,30.153,-85.5699,304.18,51,1,1.34,US,1695163712
298,vilyuchinsk,52.9306,158.4028,283.3,96,100,7.45,RU,1695163712
299,luanda,-8.8368,13.2343,296.15,88,40,2.57,AO,1695163712
300,port moresby,-9.4431,147.1797,297.83,94,75,1.54,PG,1695163630
301,kailua-kona,19.6406,-155.9956,302.75,78,40,4.63,US,1695163568
302,ponta delgada,37.7333,-25.6667,295.55,83,75,5.66,PT,1695163713
303,luderitz,-26.6481,15.1594,286.37,80,8,7.32,NA,1695163713
304,longboat key,27.4125,-82.659,303.81,41,0,5.14,US,1695163509
305,kolonia,50.9333,6.95,291.94,69,40,4.12,DE,1695163460
306,falun,60.6036,15.626,283.38,91,84,3.46,SE,1695163714
307,corfu,39.62,19.9197,296.03,83,20,0.0,GR,1695163715
308,uhrichsville,40.3931,-81.3465,294.16,65,20,2.57,US,1695163715
309,la palma,33.8464,-118.0467,303.25,60,20,4.92,US,1695163715
310,heroica caborca,30.7167,-112.15,310.05,15,0,6.34,MX,1695163576
311,antonio enes,-16.2325,39.9086,296.11,87,0,1.54,MZ,1695163716
312,panaba,21.2833,-88.2667,301.2,74,91,4.53,MX,1695163716
313,tidjikja,18.5564,-11.4271,307.39,25,29,4.64,MR,1695163716
314,butembo,0.15,29.2833,286.8,97,28,0.98,CD,1695163717
315,tazacorte,28.629,-17.9293,294.69,78,20,4.63,ES,1695163717
316,luau,-10.7073,22.2247,295.25,49,93,2.01,AO,1695163717
317,taraz,42.9,71.3667,286.38,82,100,1.0,KZ,1695163717
318,haimen,23.1935,116.6142,297.09,83,0,1.48,CN,1695163718
319,mbandaka,0.0487,18.2603,295.5,86,57,1.28,CD,1695163600
320,tsetserleg,47.475,101.4542,277.06,65,77,1.99,MN,1695163718
321,valentin gomez farias,28.2167,-106.5833,297.87,47,42,6.88,MX,1695163718
322,tuy hoa,13.0833,109.3,298.76,90,72,1.18,VN,1695163719
323,saint-francois,46.4154,3.9054,285.84,100,0,1.54,FR,1695163719
324,viedma,-40.8135,-62.9967,279.43,89,100,7.24,AR,1695163719
325,leavenworth,39.2333,-95.0336,300.74,55,100,0.45,US,1695163429
326,palmas,-10.2128,-48.3603,304.08,37,0,0.0,BR,1695163462
327,santa terezinha,-29.9002,-50.0904,291.61,98,100,5.39,BR,1695163720
328,castillos,-34.1667,-53.8333,286.03,95,100,6.27,UY,1695163720
329,takoradi,4.8845,-1.7554,297.91,91,93,2.98,GH,1695163720
330,elko,41.0002,-115.5012,299.35,21,99,6.71,US,1695163720
331,mikuni,36.2171,136.1519,298.1,84,100,1.95,JP,1695163721
332,ocher,57.8904,54.7202,278.04,78,100,1.9,RU,1695163721
333,sisimiut,66.9395,-53.6735,274.99,72,9,3.65,GL,1695163721
334,lakatoro,-16.0999,167.4164,300.66,79,13,5.21,VU,1695163721
335,al bawiti,28.3492,28.8659,297.68,55,0,2.74,EG,1695163721
336,kapuskasing,49.4169,-82.4331,290.2,36,20,1.03,CA,1695163722
337,griffith,41.5284,-87.4237,291.42,88,0,3.09,US,1695163722
338,conde,-7.2597,-34.9075,296.85,100,75,3.09,BR,1695163722
339,rakhiv,48.0526,24.2009,288.43,98,100,0.73,UA,1695163722
340,ban nong wua so,17.2675,103.2247,298.12,93,51,1.11,TH,1695163723
341,nis,43.7031,7.2661,295.05,78,75,3.09,FR,1695163568
342,timimoun,29.2639,0.231,306.36,11,0,3.09,DZ,1695163723
343,rath,25.5833,79.5667,301.65,75,90,1.1,IN,1695163723
344,kabansk,52.0486,106.6528,281.73,78,65,1.72,RU,1695163723
345,howard springs,-12.497,131.047,299.75,70,67,1.72,AU,1695163724
346,pontcharra,45.4333,6.0167,291.01,92,3,1.41,FR,1695163724
347,colonia,50.9333,6.95,291.94,70,40,4.12,DE,1695163551
348,ar raqqah,35.95,39.0167,299.53,25,0,1.79,SY,1695163724
349,springbok,-29.6643,17.8865,280.13,93,79,2.04,ZA,1695163725
350,messini,37.0511,22.0078,297.14,83,8,1.54,GR,1695163725
351,stephenville,32.2207,-98.2023,307.73,31,0,6.17,US,1695163657
352,cananeia,-25.0147,-47.9267,294.18,95,56,4.65,BR,1695163725
353,lata,40.1629,-8.3327,288.66,93,47,0.35,PT,1695163725
354,codrington,-38.2667,141.9667,284.32,63,96,7.22,AU,1695163726
355,pyay,18.8167,95.2167,296.93,98,97,2.57,MM,1695163726
356,baardheere,2.3446,42.2764,298.19,69,75,6.67,SO,1695163726
357,banlung,13.7468,107.0045,295.37,99,94,0.64,KH,1695163726
358,arraial do cabo,-22.9661,-42.0278,295.07,88,0,7.2,BR,1695163577
359,la'ie,21.6477,-157.9253,305.13,67,82,5.36,US,1695163727
360,hilo,19.7297,-155.09,301.07,78,100,2.06,US,1695163727
361,inirida,3.8653,-67.9239,299.02,84,76,0.99,CO,1695163727
362,rikaze,29.25,88.8833,284.51,62,99,2.71,CN,1695163728
363,port lincoln,-34.7333,135.8667,287.97,72,50,8.47,AU,1695163728
364,arvayheer,46.2639,102.775,277.67,57,57,2.18,MN,1695163728
365,lerma,42.0261,-3.7598,288.46,52,4,1.86,ES,1695163728
366,callao,-12.0667,-77.15,295.77,73,100,6.69,PE,1695163729
367,edson,53.5835,-116.4356,286.23,38,100,4.12,CA,1695163687
368,mar del plata,-38.0023,-57.5575,283.76,82,0,3.09,AR,1695163729
369,chui,-33.6971,-53.4616,286.92,95,100,7.68,UY,1695163729
370,ferkessedougou,9.6,-5.2,296.89,89,59,1.53,CI,1695163730
371,waingapu,-9.6567,120.2641,297.85,74,40,4.53,ID,1695163730
372,kerikeri,-35.2268,173.9474,294.77,72,4,1.13,NZ,1695163730
373,serhetabat,35.2799,62.3438,289.4,32,0,2.74,TM,1695163730
374,labrador city,52.9463,-66.9114,283.1,93,100,3.09,CA,1695163730
375,vernon,50.2581,-119.2691,288.35,68,100,1.03,CA,1695163542
376,kristiansund,63.1115,7.732,284.18,81,75,6.17,NO,1695163731
377,albania,41.0,20.0,295.61,57,42,1.53,AL,1695163731
378,mahibadhoo,3.7833,72.9667,300.79,71,100,0.87,MV,1695163731
379,cumana,10.4635,-64.1775,300.52,82,40,4.67,VE,1695163731
380,mo i rana,66.3128,14.1428,281.41,91,100,7.2,NO,1695163732
381,muzaffarabad,34.37,73.4711,294.64,79,20,2.07,PK,1695163732
382,nieuw amsterdam,5.8833,-55.0833,298.9,90,79,3.08,SR,1695163732
383,milevsko,49.4509,14.36,288.11,99,99,2.14,CZ,1695163733
384,salekhard,66.53,66.6019,279.91,82,76,8.39,RU,1695163507
385,nasiriyah,31.0521,46.261,305.01,14,0,3.91,IQ,1695163733
386,kayyerkan,69.3786,87.7439,276.65,100,100,11.46,RU,1695163733
387,kindu,-2.95,25.95,293.54,95,49,0.82,CD,1695163734
388,bel ombre,-4.6167,55.4167,300.06,83,75,5.66,SC,1695163734
389,okha,53.5739,142.9478,279.61,82,100,11.05,RU,1695163734
390,faro,37.0194,-7.9322,295.47,56,0,4.63,PT,1695163734
391,krasnyy chikoy,50.3643,108.7512,278.94,91,75,1.51,RU,1695163734
392,marsa alam,25.0757,34.8918,303.28,46,0,3.93,EG,1695163735
393,prince george,53.9166,-122.753,284.61,78,75,5.14,CA,1695163735
394,forster,-32.1667,152.5167,297.2,44,0,2.89,AU,1695163735
395,angaur state,6.906,134.13,301.26,77,100,5.73,PW,1695163735
396,bondo,3.8146,23.6866,292.31,99,35,0.44,CD,1695163736
397,inhambane,-23.865,35.3833,293.77,90,11,4.54,MZ,1695163736
398,kemijarvi,66.7131,27.4306,280.61,98,100,5.07,FI,1695163736
399,lexington,37.9887,-84.4777,299.15,36,0,0.45,US,1695163609
400,cinisi,38.1562,13.1073,298.63,83,0,1.54,IT,1695163736
401,ryotsu-minato,38.0833,138.4333,298.64,77,100,2.19,JP,1695163737
402,camocim,-2.9022,-40.8411,299.92,74,27,8.4,BR,1695163737
403,kudahuvadhoo,2.6708,72.8944,300.79,75,100,3.36,MV,1695163738
404,ippy,6.2679,21.2247,294.51,96,100,1.27,CF,1695163738
405,pacific grove,36.6177,-121.9166,296.98,76,0,6.17,US,1695163738
406,xincheng,33.6333,115.1833,292.2,92,100,7.09,CN,1695163739
407,port hedland,-20.3167,118.5667,293.18,94,22,2.57,AU,1695163739
408,wuda,39.4994,106.7117,290.41,35,93,3.22,CN,1695163739
409,koyulhisar,40.3025,37.8311,286.16,83,58,1.55,TR,1695163739
410,lamu,-2.2717,40.902,297.91,82,6,6.45,KE,1695163740
411,cidreira,-30.1811,-50.2056,291.26,98,100,6.64,BR,1695163740
412,kstovo,56.1473,44.1979,284.81,61,45,2.95,RU,1695163740
413,plastun,44.7561,136.2939,285.93,58,22,4.92,RU,1695163740
414,islamkot,24.6997,70.177,300.0,91,100,6.3,PK,1695163741
415,salamanca,40.8333,-6.0,289.29,59,63,1.54,ES,1695163522
416,tartu,58.3806,26.7251,287.29,83,100,4.63,EE,1695163741
417,pizarro,4.9533,-77.366,299.81,84,99,2.28,CO,1695163741
418,rongelap,11.1635,166.8941,301.7,79,81,6.25,MH,1695163742
419,nova vicosa,-17.8919,-39.3719,296.58,82,3,4.9,BR,1695163742
420,paradip garh,20.3167,86.6167,300.64,84,100,2.76,IN,1695163742
421,as sulayyil,20.4607,45.5779,302.29,19,39,3.3,SA,1695163743
422,simpang,-1.2667,104.0833,296.69,93,18,0.97,ID,1695163743
423,fortuna,40.5982,-124.1573,293.11,72,20,6.69,US,1695163743
424,north side,19.35,-81.2,305.19,75,20,4.12,KY,1695163743
425,neftekamsk,56.092,54.2703,279.98,71,50,0.45,RU,1695163744
426,bac lieu,9.285,105.7244,299.29,87,79,2.12,VN,1695163744
427,novo cruzeiro,-17.4681,-41.8753,293.63,61,0,2.46,BR,1695163744
428,mitchell,43.7094,-98.0298,306.14,25,0,2.57,US,1695163744
429,sao pedro da aldeia,-22.8392,-42.1028,295.14,88,0,7.2,BR,1695163745
430,poronaysk,49.2167,143.1167,283.23,83,60,8.74,RU,1695163745
431,garoowe,8.4054,48.4845,297.89,69,73,10.97,SO,1695163745
432,puerto leguizamo,-0.1934,-74.7819,299.89,71,80,0.07,CO,1695163745
433,strezhevoy,60.7333,77.5889,283.69,93,19,3.58,RU,1695163745
434,vizinga,61.0749,50.1031,279.52,78,100,3.94,RU,1695163746
435,barra dos coqueiros,-10.9089,-37.0386,299.16,83,75,6.17,BR,1695163746
436,ancud,-41.8697,-73.8203,278.77,69,47,4.04,CL,1695163746
437,guayaramerin,-10.8368,-65.3614,302.51,50,81,1.16,BO,1695163746
438,sanibel,26.449,-82.0223,298.16,65,100,3.74,US,1695163747
439,alofi,-19.0595,-169.9187,298.09,53,75,8.75,NU,1695163747
440,coquimbo,-29.9533,-71.3436,288.0,82,20,4.63,CL,1695163747
441,saint-philippe,-21.3585,55.7679,294.92,81,40,5.94,RE,1695163748
442,cranbrook,49.4999,-115.7688,284.06,76,100,1.54,CA,1695163679
443,coracora,-15.0333,-73.7833,285.83,45,12,3.04,PE,1695163748
444,barentu,15.1139,37.5928,294.61,78,47,2.82,ER,1695163748
445,chinde,26.8418,88.0763,291.23,80,83,1.49,NP,1695163749
446,weiler-simmerberg,47.5833,9.9333,287.52,73,71,1.24,DE,1695163749
447,port saint john's,-31.6229,29.5448,291.44,89,3,2.28,ZA,1695163749
448,sao gabriel da cachoeira,-0.1303,-67.0892,297.29,92,88,0.88,BR,1695163484
449,novodvinsk,64.4165,40.8122,283.97,86,100,4.58,RU,1695163749
450,kiunga,-6.1219,141.2906,299.69,73,48,1.61,PG,1695163750
451,inarajan village,13.2736,144.7484,302.81,90,98,6.36,GU,1695163750
452,tolanaro,-25.0319,46.9987,295.19,83,20,10.8,MG,1695163750
453,caleta de carquin,-11.0925,-77.6267,293.08,84,41,4.4,PE,1695163750
454,ternate,0.8,127.4,300.16,79,92,4.04,ID,1695163751
455,nuku'alofa,-21.1333,-175.2,297.34,69,75,9.26,TO,1695163751
456,aras-asan,8.8908,126.3033,299.53,85,33,1.54,PH,1695163751
457,metlili chaamba,32.2667,3.6333,301.67,14,75,3.09,DZ,1695163751
458,hammerfest,70.6634,23.6821,278.4,81,75,10.29,NO,1695163751
459,yuzhno-kurilsk,44.0306,145.8556,292.51,70,100,4.22,RU,1695163752
460,guaratinga,-16.5667,-39.5667,293.49,89,7,1.74,BR,1695163752
461,port erin,54.0849,-4.751,290.08,88,20,14.4,IM,1695163752
462,carbonear,47.7332,-53.2148,288.48,94,100,4.81,CA,1695163753
463,camapua,-19.5314,-54.0439,302.18,40,47,1.64,BR,1695163753
464,barah,13.7,30.3667,303.41,42,85,3.49,SD,1695163753
465,pariaman,-0.619,100.12,297.18,91,85,2.62,ID,1695163753
466,ujae,8.9322,165.7642,301.65,75,89,3.15,MH,1695163754
467,lichinga,-13.3128,35.2406,291.74,42,19,1.33,MZ,1695163754
468,miguel ahumada,30.6167,-106.5167,306.61,20,0,4.68,MX,1695163754
469,lima,-12.0432,-77.0282,294.76,74,100,6.69,PE,1695163724
470,rabigh,22.7986,39.0349,304.05,59,70,4.32,SA,1695163755
471,canutama,-6.5339,-64.3831,305.37,34,62,1.4,BR,1695163755
472,alo,7.4178,6.7371,297.12,95,89,0.67,NG,1695163755
473,chongjin,41.7956,129.7758,290.36,61,89,1.67,KP,1695163755
474,bethanie,-26.4833,17.15,286.79,27,17,0.73,NA,1695163755
475,tamanrasset,22.785,5.5228,295.1,16,0,2.06,DZ,1695163756
476,yangambi,0.8102,24.4336,292.38,99,62,0.7,CD,1695163756
477,san fernando de apure,7.8878,-67.4724,298.95,90,71,1.93,VE,1695163756
478,wanning,18.8003,110.3967,300.09,86,23,0.63,CN,1695163756
479,kantemirovka,49.7089,39.8592,288.26,50,39,2.65,RU,1695163756
480,onega,63.9061,38.1404,285.07,93,100,5.77,RU,1695163757
481,magnitka,55.3475,59.6961,276.16,94,5,1.05,RU,1695163757
482,oyama,36.3,139.8,302.92,74,88,1.28,JP,1695163757
483,sunnyslope,34.012,-117.4334,304.79,48,0,4.63,US,1695163757
484,puerto baquerizo moreno,-0.9,-89.6,298.7,78,40,6.17,EC,1695163758
485,tromso,69.6496,18.957,278.16,70,0,9.26,NO,1695163758
486,cihanbeyli,38.6607,32.9244,289.64,39,16,2.86,TR,1695163758
487,linghai,41.1653,121.3667,288.46,61,1,2.87,CN,1695163758
488,salmon arm,50.6998,-119.3024,285.77,66,100,0.51,CA,1695163661
489,arkhangel'sk,64.5401,40.5433,284.3,85,100,4.61,RU,1695163759
490,mangrol,21.1167,70.1167,300.24,88,86,4.21,IN,1695163759
491,saint-pierre,-21.3393,55.4781,294.97,64,20,2.57,RE,1695163759
492,copiapo,-27.3667,-70.3333,293.71,49,0,2.05,CL,1695163760
493,ennis,52.8436,-8.9864,290.11,94,75,6.69,IE,1695163760
494,klaksvik,62.2266,-6.589,283.66,93,48,7.46,FO,1695163761
495,neryungri,56.6709,124.6491,272.72,56,73,1.45,RU,1695163761
496,kone,-21.0595,164.8658,297.54,80,75,2.18,NC,1695163761
497,sidi khaled,34.387,4.9879,302.31,21,100,2.17,DZ,1695163762
498,moundsville,39.9203,-80.7431,294.12,66,61,0.53,US,1695163762
499,tres palos,18.1833,-101.6167,302.99,69,19,1.97,MX,1695163762
500,sretensk,52.2453,117.7093,280.35,54,97,1.27,RU,1695163762
501,tual,-5.6667,132.75,297.97,83,23,6.62,ID,1695163763
502,sainyabuli,19.25,101.75,294.38,97,100,0.45,LA,1695163763
503,norton,-17.8833,30.7,290.53,50,10,3.31,ZW,1695163763
504,meghraj,23.5,73.5,296.65,97,73,2.96,IN,1695163764
505,saint-joseph,-21.3667,55.6167,294.36,78,21,5.56,RE,1695163764
506,khanty-mansiysk,61.0042,69.0019,283.21,71,20,2.0,RU,1695163764
507,severo-yeniseyskiy,60.3725,93.0408,274.05,93,51,1.37,RU,1695163764
508,farafangana,-22.8167,47.8333,293.7,90,3,3.07,MG,1695163764
509,selfoss,63.9331,-20.9971,282.62,66,99,13.43,IS,1695163765
510,williston,48.147,-103.618,296.56,37,2,2.68,US,1695163765
511,mala,-12.6581,-76.6308,292.76,86,24,2.13,PE,1695163514
512,bardai,11.65,7.2333,295.56,71,18,1.24,NG,1695163765
513,greymouth,-42.4667,171.2,287.03,95,99,4.46,NZ,1695163657
514,paracuru,-3.41,-39.0306,300.43,84,14,6.83,BR,1695163766
515,flying fish cove,-10.4217,105.6791,296.97,88,75,5.66,CX,1695163766
516,mineiros,-17.5694,-52.5511,300.68,39,88,2.72,BR,1695163480
517,gizo,-8.103,156.8419,300.9,81,95,5.36,SB,1695163767
518,ad dilam,23.9915,47.1627,304.38,19,46,1.71,SA,1695163767
519,leava,-14.3,-178.1667,299.67,76,86,11.28,WF,1695163767
520,tofol,5.3248,163.0078,301.03,89,75,4.63,FM,1695163767
521,vorgashor,67.5833,63.95,277.9,93,99,10.28,RU,1695163768
522,mount isa,-20.7333,139.5,299.02,50,26,2.06,AU,1695163768
523,la concordia,13.1953,-86.1667,301.88,76,51,2.26,NI,1695163768
524,lazaro cardenas,17.9583,-102.2,302.74,72,16,4.17,MX,1695163550
525,rutland,43.6167,-73.0162,291.14,82,100,4.12,US,1695163768
526,port clinton,41.512,-82.9377,294.04,65,100,0.0,US,1695163759
527,saynshand,44.8824,110.1163,286.19,46,7,1.72,MN,1695163769
528,salahonda,2.1019,-78.7217,299.6,82,100,6.45,CO,1695163769
529,punta del este,-34.9667,-54.95,287.57,88,75,4.12,UY,1695163769
530,bhimunipatnam,17.8833,83.4333,300.54,79,100,3.08,IN,1695163769
531,nysa,50.4738,17.3344,288.63,69,76,3.07,PL,1695163770
532,palikir - national government center,6.9248,158.1611,300.62,89,100,1.54,FM,1695163770
533,nantucket,41.2835,-70.0995,294.23,83,0,7.2,US,1695163770
534,wittlich,49.9833,6.8833,290.46,79,79,2.43,DE,1695163770
535,juankoski,63.0667,28.35,288.13,88,81,7.18,FI,1695163770
536,sylvester,31.5307,-83.8354,301.78,53,24,1.44,US,1695163771
537,magadan,59.5667,150.8,279.56,92,100,14.35,RU,1695163771
538,stornoway,58.2093,-6.3865,283.2,89,75,3.6,GB,1695163771
539,ulan bator,47.9077,106.8832,273.22,93,0,1.0,MN,1695163673
540,pavugada,14.1,77.2667,295.29,81,88,5.72,IN,1695163772
541,san andres,12.5847,-81.7006,303.16,79,40,4.12,CO,1695163772
542,eirunepe,-6.6603,-69.8736,299.22,76,71,1.94,BR,1695163772
543,chinsali,-10.5414,32.0816,291.81,40,16,2.4,ZM,1695163773
544,howrah,22.5892,88.3103,300.15,89,75,3.6,IN,1695163773
